City_ID,City,Country,Max Temp,Current Description,Lat,Lng,Hotel Name
13,San Cristobal,VE,75.38,scattered clouds,7.7669,-72.225,Pirineos
21,Sao Filipe,CV,75.06,overcast clouds,14.8961,-24.4956,Hotel Xaguate
34,Fukuma,JP,75.34,overcast clouds,33.7667,130.4667,Masago
36,Hasaki,JP,73.8,overcast clouds,35.7333,140.8333,Inubosaki Kanko Hotel
38,Buhl,DE,73.26,clear sky,48.7,8.15,Hotel am Froschbächel Bühl
64,Torbay,CA,73.76,broken clouds,47.6666,-52.7314,Gallows Cove
66,Belmonte,BR,72.45,broken clouds,-15.8631,-38.8828,Pousada Monte Carmelo O Pão
73,Ribeira Grande,PT,75.6,few clouds,38.5167,-28.7,Quinta da Meia Eira
84,Matara,LK,76.21,broken clouds,5.9485,80.5353,Amaloh Boutique Resort
86,Puerto Ayora,EC,76.96,broken clouds,-0.7393,-90.3518,Finch Bay Galapagos Hotel
90,Sechura,PE,74.35,clear sky,-5.5569,-80.8222,Hospedaje Costa Bella
96,Avarua,CK,75.25,broken clouds,-21.2078,-159.775,Paradise Inn
103,Vaini,TO,75.36,few clouds,-21.2,-175.2,Keleti Beach Resort
111,Bang Saphan,TH,76.39,overcast clouds,11.2126,99.5117,Ladawan Boutique Hotel
117,Fort Nelson,CA,72.99,scattered clouds,58.8053,-122.7002,The Fort Nelson Hotel
134,Fomboni,KM,76.32,clear sky,-12.28,43.7425,Auberge les abou
139,Weligama,LK,76.55,broken clouds,5.9667,80.4167,Weligama Bay Resort
142,Weinan,CN,74.82,moderate rain,34.5036,109.5089,Thank Inn Chain Hotel shanxi weinan linwei district jiefang road
143,San Quintin,MX,73.74,clear sky,30.4833,-115.95,Don Eddie's Sport Fishing Center
156,Ponta Do Sol,PT,76.01,few clouds,32.6667,-17.1,Hotel do Campo
157,Saint-Francois,FR,74.64,clear sky,46.4154,3.9054,Manoir Du Bonheur
159,Vanimo,PG,76.06,overcast clouds,-2.6741,141.3028,Vahmoneh Lodge Vanimo
160,Erenhot,CN,74.8,overcast clouds,43.6475,111.9767,Erenhot Rurouni Youth Hostel
164,Alofi,NU,76.89,overcast clouds,-19.0595,-169.9187,Taloa Heights
167,Atuona,PF,76.66,clear sky,-9.8,-139.0333,Villa Enata
171,Kimbe,PG,75.06,light rain,-5.5502,150.1429,Kimbe Bay Hotel
178,Kendari,ID,72.14,broken clouds,-3.945,122.4989,Hotel Wixel
179,Durusu,TR,74.84,clear sky,41.3053,28.6767,Durusu Talebe Yurdu
182,Cocobeach,GA,76.6,overcast clouds,1.0002,9.5823,Hotel Esperance
186,Samarai,PG,76.24,overcast clouds,-10.6167,150.6667,Nuli Sapi
190,Tura,IN,75.67,moderate rain,25.5198,90.2201,Hotel RIKMAN Continental
191,Dingle,PH,76.42,overcast clouds,10.9995,122.6711,SEGAYA PROPERTY
196,Shimoda,JP,74.1,moderate rain,34.6667,138.95,Shimoda Tokyu Hotel
201,Mogadishu,SO,76.55,overcast clouds,2.0371,45.3438,Hotel Juba
230,Arraial Do Cabo,BR,72.82,broken clouds,-22.9661,-42.0278,Pousada Porto Praia
231,Doka,SD,72.77,light rain,13.5167,35.7667,Um Rakuba Refugee Camp
234,Maragogi,BR,75.76,clear sky,-9.0122,-35.2225,Salinas do Maragogi All Inclusive Resort
240,Caravelas,BR,73.2,clear sky,-17.7125,-39.2481,Pousada dos Navegantes
245,Bintulu,MY,76.21,overcast clouds,3.1667,113.0333,900 Boutique INN
252,Pakxe,LA,75.02,few clouds,15.1167,105.7833,Champasak Palace Hotel
267,Hecun,CN,76.53,overcast clouds,36.5333,114.1111,Yijia Hotel
277,Lahad Datu,MY,75.13,overcast clouds,5.0268,118.327,The 27th House
282,Kota Kinabalu,MY,75.18,few clouds,5.9749,116.0724,Gaya Centre Hotel
285,Ashtian,IR,72.55,clear sky,34.5217,50.0019,Jamiatul Mustafa Al Aalamia Ashtiyan
287,Amahai,ID,76.59,light rain,-3.3333,128.9167,HOTEL ISABELA
289,Wamba,NG,72.46,moderate rain,8.9333,8.6,Roma Zee Guest House Annex
305,Praia Da Vitoria,PT,74.75,few clouds,38.7333,-27.0667,Hotel Branco I
308,Katsuura,JP,74.7,overcast clouds,35.1333,140.3,Katsuura Hotel Mikazuki
309,Sanandrei,RO,75.94,clear sky,45.8531,21.1681,Otilia and Morty
335,Yenagoa,NG,74.39,overcast clouds,4.9247,6.2642,Aridolf Resort Wellness and Spa
345,Harper,LR,74.75,overcast clouds,4.375,-7.7169,Screensaver
348,Axim,GH,75.67,overcast clouds,4.8699,-2.2405,Axim Beach Resort And Spa
354,La Asuncion,VE,73.13,overcast clouds,11.0333,-63.8628,Colinas de Matasiete
356,Mlonggo,ID,76.77,few clouds,-6.5333,110.7,Asia Metal Art
358,Lagoa Santa,BR,76.73,scattered clouds,-19.6272,-43.8897,Hotel Lund
373,Andradas,BR,72.36,overcast clouds,-22.0681,-46.5692,Andradas Palace Hotel
377,Artyom,AZ,73.54,clear sky,40.4723,50.333,Pir hos
379,Lafia,NG,75.42,moderate rain,8.4833,8.5167,Low Cost Housing Estate
381,Normandin,CA,74.57,overcast clouds,48.8333,-72.5321,Chambres MB Normandin (Lac St -Jean)
389,Prado,BR,72.41,few clouds,-17.3411,-39.2208,INN CORNER RIVER - PRADO - BAHIA - HOUSING AND HOTEL
391,Ilhabela,BR,73.6,overcast clouds,-23.7781,-45.3581,Ilha Flat Hotel
398,Dalianwan,CN,73.44,clear sky,39.0286,121.695,Huanghai Hotel
404,Conceicao Do Mato Dentro,BR,74.14,broken clouds,-19.0372,-43.425,Hotel Vista Inn
417,Bengkulu,ID,75.6,overcast clouds,-3.8004,102.2655,Grage Hotel Bengkulu
427,Japura,ID,73.65,broken clouds,-0.3167,102.35,Rumah mbah Jamah
430,Meulaboh,ID,76.66,overcast clouds,4.1363,96.1285,Kost Pria
434,North Bend,US,76.24,clear sky,43.4065,-124.2243,Red Lion Hotel Coos Bay
444,Krasnyy Yar,RU,75.13,clear sky,46.5331,48.3456,Cottege near Ufa
475,Pangkalanbuun,ID,73.18,broken clouds,-2.6833,111.6167,Grand Kecubung Hotel
477,Weihai,CN,72.54,few clouds,37.5017,122.1136,Beihai Travel Resort
491,Ayutla,MX,73.18,overcast clouds,20.1167,-104.3333,Hotel Principal
493,Nabire,ID,75.52,overcast clouds,-3.3667,135.4833,Hotel Nusantara I
497,Ribeira Brava,PT,76.01,few clouds,32.65,-17.0667,Hotel do Campo
498,Halifax,CA,76.69,broken clouds,44.6453,-63.5724,Hotel Halifax
517,Tabou,CI,74.8,overcast clouds,4.423,-7.3528,hotêl doufoulougou
524,Touros,BR,76.66,scattered clouds,-5.1989,-35.4608,INN NEW HORIZON
527,Seoul,KR,72.84,clear sky,37.5683,126.9778,Lotte Hotel Seoul
528,Buta,CD,72.19,overcast clouds,2.7858,24.73,Hôtel BOPANDO
529,Bambanglipuro,ID,74.44,few clouds,-7.95,110.2833,Puri Brata
542,Bitung,ID,74.25,light rain,1.4451,125.1824,K2 Lembeh
544,Shu,KZ,76.1,clear sky,43.5983,73.7614,Shyngyzkhan
554,Marshfield,US,74.28,broken clouds,44.6689,-90.1718,"Holiday Inn Conference Ctr Marshfield, an IHG Hotel"
576,Lamu,KE,75.42,overcast clouds,-2.2717,40.902,Lamu House
603,Goderich,CA,73.9,overcast clouds,43.7501,-81.7165,Harmony Inn
604,Kozhva,RU,72.5,few clouds,65.1073,57.0459,Gostinicha IP Kayuda Olga Aleksandrovna
608,Port-Gentil,GA,75.16,scattered clouds,-0.7193,8.7815,Fengshui Residence
610,High Level,CA,75.81,overcast clouds,58.5169,-117.136,Days Inn by Wyndham High Level
611,Patan,NP,73.78,scattered clouds,27.6667,85.3333,Hotel Himalaya
614,Hearst,CA,74.03,overcast clouds,49.6835,-83.6665,Companion
620,Biltine,TD,76.62,moderate rain,14.5333,20.9167,Hôtel Trois Étoiles de Biltine
624,Andros Town,BS,75.16,moderate rain,24.7,-77.7667,Hanks place
628,Auki,SB,76.23,overcast clouds,-8.7676,160.7034,Auki Motel
630,Talavera,PH,76.75,overcast clouds,15.6167,120.9333,R&G's Resort
638,Monrovia,LR,75.99,overcast clouds,6.3005,-10.7969,Sunset Inn
640,Casablanca,MA,75.42,clear sky,33.5928,-7.6192,فندق البيت المغربي كازبلانكا
644,Buchanan,LR,75.52,light rain,5.8808,-10.0467,Kamaneahn Hotel Inc
648,Hohhot,CN,73.49,overcast clouds,40.8106,111.6522,Sheraton Hohhot Hotel
666,Dharchula,IN,73.27,overcast clouds,29.85,80.5333,Mahara Hotel
673,Honiara,SB,76.14,broken clouds,-9.4333,159.95,Heritage Park Hotel
676,Imperia,IT,75.22,few clouds,43.9667,7.7833,La Stregatta
